City_ID,City,Lat,Lng,Max Temp,Humidity,Cloudiness,Wind Speed,Country,Date
0,blackmans bay,-43.0047,147.318,276.84,90,16,2.79,AU,1684351954
1,port-aux-francais,-49.3498,70.22,280.94,98,100,12.42,TF,1684351954
2,murudeshwara,14.096,74.4883,300.6,83,0,3.02,IN,1684351955
3,iqaluit,63.7494,-68.5219,269.77,63,89,7.6,CA,1684351955
4,anadyr,64.7317,177.5061,272.08,69,0,2.0,RU,1684351955
5,puerto natales,-51.7262,-72.506,277.83,80,100,4.52,CL,1684351955
6,afaahiti,-17.739,-149.29,301.53,82,14,5.41,PF,1684351956
7,linqiong,30.4145,103.4654,293.14,75,100,1.67,CN,1684351956
8,adamstown,-25.0667,-130.1002,296.26,74,0,1.54,PN,1684351956
9,mokhsogollokh,61.3979,128.9479,276.98,84,100,3.42,RU,1684351957
10,qaqortoq,60.7182,-46.0385,274.5,99,100,1.33,GL,1684351957
11,avarua,-21.2075,-159.7708,296.49,68,33,5.98,CK,1684351957
12,tual,-5.639,132.7429,301.03,76,75,8.1,ID,1684351958
13,port mathurin,-19.6808,63.4221,299.11,79,16,6.16,MU,1684351958
14,tiksi,71.6366,128.8685,265.52,96,100,4.54,RU,1684351958
15,kaiama,9.6099,3.9414,299.92,68,100,2.6,NG,1684351958
16,norman gardens,-23.3224,150.5393,285.34,56,0,1.53,AU,1684351959
17,porto novo,6.4991,2.6253,301.34,79,79,4.03,BJ,1684351959
18,constantia,44.1767,28.6508,286.41,79,100,4.11,RO,1684351959
19,kochenevo,55.0214,82.2077,271.81,64,0,2.84,RU,1684351960
20,isafjordur,66.0727,-23.1194,280.81,78,100,0.5,IS,1684351960
21,pindobacu,-10.7439,-40.3619,300.35,50,88,3.48,BR,1684351960
22,fuvahmulah,-0.2948,73.4241,301.36,79,33,4.2,MV,1684351960
23,waitangi,-35.2705,174.0805,288.41,75,96,5.6,NZ,1684351961
24,arraial do cabo,-22.9663,-42.0244,295.4,69,16,7.53,BR,1684351961
25,koppa,12.8054,77.6274,300.15,51,55,3.07,IN,1684351961
26,kingscliff,-28.2567,153.5761,285.29,86,2,4.67,AU,1684351961
27,mount pearl,47.5185,-52.8079,285.17,87,100,14.4,CA,1684351518
28,formosa do rio preto,-11.0415,-45.1904,301.42,53,100,0.84,BR,1684351962
29,peace river,56.2333,-117.2908,293.07,30,0,2.61,CA,1684351501
30,uvel'skiy,54.442,61.3544,283.42,44,100,5.97,RU,1684351963
31,invercargill,-46.4118,168.3471,281.04,90,100,3.59,NZ,1684351963
32,magadan,59.5605,150.7989,278.86,80,100,4.63,RU,1684351963
33,san patricio,27.9695,-97.7732,304.36,48,30,2.2,US,1684351963
34,puerto ayora,-0.7472,-90.3134,301.04,87,94,3.58,EC,1684351964
35,wenshui,37.4322,112.0305,290.32,45,75,1.31,CN,1684351964
36,wailua homesteads,22.0581,-159.3691,297.06,83,86,2.68,US,1684351964
37,bytow,54.1695,17.489,279.44,76,100,2.41,PL,1684351965
38,trebujena,36.8693,-6.1767,293.86,54,20,4.63,ES,1684351965
39,tanjung selor,2.8418,117.3687,296.43,93,87,1.24,ID,1684351965
40,hawaiian paradise park,19.585,-154.9731,295.32,94,96,3.31,US,1684351965
41,yellowknife,62.4541,-114.3774,286.05,50,8,5.81,CA,1684351966
42,touros,-5.1999,-35.4595,300.38,78,53,4.78,BR,1684351966
43,codrington,51.5082,-2.3937,288.1,89,100,1.28,GB,1684351966
44,guiglo,6.4303,-7.5909,299.45,77,100,1.73,CI,1684351966
45,nemuro,43.3301,145.5829,280.03,92,99,2.73,JP,1684351967
46,tamluk,22.2897,87.9256,301.73,82,14,5.92,IN,1684351967
47,stanley,-51.6951,-57.8492,281.34,79,9,10.26,FK,1684351967
48,lebu,-37.61,-73.6559,286.25,65,99,2.03,CL,1684351968
49,kingston,17.9712,-76.7928,303.1,81,99,2.24,JM,1684351920
50,portland,45.5202,-122.6742,302.38,53,0,1.34,US,1684351968
51,turkmenbasy,40.0053,52.9929,288.89,59,99,4.71,TM,1684351968
52,qarqaraly,49.4124,75.4705,280.79,34,100,8.06,KZ,1684351969
53,ilulissat,69.2197,-51.0986,272.83,82,13,1.08,GL,1684351969
54,west island,-12.1459,96.8423,300.35,70,41,9.19,CC,1684351969
55,san matias,15.0084,120.7113,301.57,79,100,1.08,PH,1684351969
56,vilyuchinsk,52.9318,158.4054,276.32,91,100,1.32,RU,1684351970
57,whitehorse,60.72,-135.0519,293.76,23,7,1.79,CA,1684351482
58,jerez de garcia salinas,22.6494,-102.99,299.49,16,92,5.94,MX,1684351970
59,petropavlovsk-kamchatsky,53.02,158.6471,276.21,86,100,1.27,RU,1684351971
60,maraba,-5.3463,-49.1007,301.25,82,76,1.96,BR,1684351971
61,papatowai,-46.5619,169.4708,281.56,90,100,4.59,NZ,1684351972
62,longyearbyen,78.22,15.65,270.21,80,100,3.09,SJ,1684351206
63,inhambane,-23.866,35.3844,295.08,86,0,4.54,MZ,1684351972
64,edinburgh of the seven seas,-37.0676,-12.3108,290.61,93,100,7.24,SH,1684351972
65,nabire,-3.3603,135.5024,297.1,91,52,1.6,ID,1684351973
66,cabo san lucas,22.8939,-109.9201,303.38,53,99,5.81,MX,1684351822
67,antsiranana,-12.2779,49.2913,296.8,93,37,2.22,MG,1684351973
68,poteau,35.0568,-94.62,298.8,62,51,1.41,US,1684351974
69,crane,31.3957,-102.3521,303.18,31,4,4.29,US,1684351974
70,lazaro cardenas,20.225,-97.5931,307.79,43,6,3.56,MX,1684351974
71,talnakh,69.494,88.3908,270.14,97,100,2.32,RU,1684351974
72,salahonda,2.0399,-78.6581,301.52,77,97,4.13,CO,1684351975
73,borogontsy,62.6708,131.1661,277.62,92,100,3.29,RU,1684351975
74,grytviken,-54.2806,-36.5098,274.35,84,22,7.88,GS,1684351975
75,nha trang,12.2432,109.1899,299.32,77,46,2.36,VN,1684351976
76,bargara,-24.8155,152.463,286.58,92,0,4.54,AU,1684351976
77,kruisfontein,-34.012,24.7433,287.59,85,100,3.85,ZA,1684351976
78,tomohon,1.3256,124.8386,293.71,84,100,0.85,ID,1684351976
79,lihue,21.977,-159.3688,297.32,83,84,3.87,US,1684351977
80,port elizabeth,-33.9617,25.6208,288.79,93,100,3.58,ZA,1684351977
81,kodiak,57.79,-152.4072,278.17,73,100,1.01,US,1684351977
82,savanna-la-mar,18.2194,-78.1327,303.11,67,62,3.38,JM,1684351978
83,ust-nera,64.5664,143.2378,275.8,96,100,2.29,RU,1684351978
84,akureyri,65.6839,-18.1122,284.85,62,100,3.65,IS,1684351761
85,sao mateus,-18.7156,-39.8483,296.96,59,60,4.13,BR,1684351979
86,smara,53.1986,50.114,290.45,62,45,2.62,RU,1684351979
87,vaxjo,56.8787,14.8094,279.58,70,4,2.0,SE,1684351979
88,sinazongwe,-17.2609,27.4606,294.98,49,14,1.71,ZM,1684351979
89,lindesberg,59.6667,15.25,282.89,43,8,2.45,SE,1684351980
90,risod,19.9778,76.7898,305.35,24,1,3.04,IN,1684351980
91,kitee,62.1002,30.1356,285.62,77,100,3.19,FI,1684351980
92,hamilton,43.2561,-79.8729,287.16,47,0,1.34,CA,1684351683
93,troitsko-pechorsk,62.7145,56.1854,284.4,82,52,1.96,RU,1684351981
94,badger,42.6144,-94.1462,301.17,54,23,4.33,US,1684351981
95,ribeira grande,37.8225,-25.5195,291.87,90,100,4.05,PT,1684351982
96,thompson,55.7433,-97.8553,275.17,96,100,4.45,CA,1684351524
97,olonkinbyen,70.9224,-8.716,274.27,96,100,5.52,SJ,1684351982
98,masterton,-40.9496,175.6594,282.51,96,100,1.39,NZ,1684351983
99,laojunmiao,33.3841,114.8906,294.4,76,72,2.9,CN,1684351983
100,richards bay,-28.7708,32.0578,291.36,80,46,2.15,ZA,1684351984
101,ellettsville,39.2339,-86.625,298.76,46,0,0.89,US,1684351797
102,puerto san jose,13.9246,-90.8192,304.68,63,3,6.82,GT,1684351984
103,conceicao da barra,-18.5841,-39.7372,296.8,61,81,4.99,BR,1684351985
104,east london,-33.0192,27.8999,289.48,83,47,4.7,ZA,1684351985
105,holualoa,19.6238,-155.9536,297.33,80,100,1.34,US,1684351986
106,ormara,25.2106,64.6375,301.19,89,7,6.52,PK,1684351986
107,ushuaia,-54.8061,-68.3185,277.98,65,75,6.69,AR,1684351987
108,sa'dah,16.9409,43.763,291.51,68,54,1.77,YE,1684351987
109,yaiza,28.938,-13.7683,290.23,74,3,9.22,ES,1684351988
110,klyuchi,56.3182,160.8422,279.82,85,48,2.02,RU,1684351988
111,tazovsky,67.4735,78.7149,270.34,90,96,5.54,RU,1684351988
112,puerto varas,-41.3178,-72.9829,281.98,93,100,2.63,CL,1684351989
113,vorkuta,67.5036,64.0627,272.88,98,97,2.53,RU,1684351989
114,la paz,-16.4955,-68.1336,291.75,20,1,0.89,BO,1684351989
115,college,45.3266,-75.8386,284.68,30,59,0.89,CA,1684351990
116,tokar,18.8518,37.8989,301.92,88,0,6.19,SD,1684351990
117,barberton,41.0128,-81.6051,289.53,46,0,1.79,US,1684351991
118,martapura,-3.4086,114.8488,298.23,100,99,0.51,ID,1684351991
119,afif,23.9024,42.9151,303.78,13,76,1.62,SA,1684351992
120,keflavik,63.9998,-22.5565,281.61,81,100,7.82,IS,1684351992
121,bredasdorp,-34.5331,20.0428,286.74,79,100,2.12,ZA,1684351993
122,shamakhi,40.6346,48.6364,283.44,86,100,1.63,AZ,1684351993
123,dhidhdhoo,6.889,73.1134,301.92,78,70,2.39,MV,1684351993
124,iskateley,67.6762,53.1292,285.79,78,59,6.06,RU,1684351994
125,chonchi,-42.624,-73.7724,284.32,71,58,1.34,CL,1684351994
126,miguel alves,-4.173,-42.8956,299.0,93,100,1.3,BR,1684351994
127,chamba,32.5565,76.125,293.92,43,90,4.54,IN,1684351995
128,barcelos,41.5314,-8.6192,289.71,61,0,2.25,PT,1684351995
129,susuman,62.7797,148.1536,276.62,74,88,3.37,RU,1684351995
130,chaihe,42.2825,124.1678,281.83,92,83,1.78,CN,1684351996
131,san rafael,37.9735,-122.5311,299.96,69,23,4.02,US,1684351996
132,albany,42.6512,-73.755,288.64,30,0,3.58,US,1684351997
133,gilgit,35.9208,74.314,291.75,56,100,0.39,PK,1684351997
134,grand falls-windsor,48.9442,-55.6526,282.67,91,100,1.87,CA,1684351997
135,el bauga,18.2521,33.8941,305.47,11,0,4.57,SD,1684351998
136,margaret river,-33.9532,115.0769,286.52,73,1,4.8,AU,1684351998
137,guozhen,23.8193,120.6065,301.8,82,1,2.1,TW,1684351999
138,la passe,46.2035,-1.4601,288.12,73,19,7.49,FR,1684351999
139,vilyuysk,63.7541,121.6265,273.46,90,28,2.52,RU,1684352000
140,bilibino,68.055,166.4449,272.36,79,100,1.19,RU,1684352000
141,shengli,40.1191,116.6445,288.55,53,1,0.42,CN,1684352001
142,yuzhno-kurilsk,44.0271,145.8614,280.01,90,92,2.28,RU,1684352001
143,pandan,-3.2874,104.193,296.88,99,100,1.29,ID,1684352002
144,kalmunai,7.4132,81.8269,299.39,88,21,4.1,LK,1684352002
145,puerto aysen,-45.4068,-72.6977,281.53,85,54,2.81,CL,1684352002
146,geraldton,-28.7704,114.6147,293.5,40,12,5.26,AU,1684351754
147,beni,0.4761,29.1893,291.9,87,78,1.09,CD,1684352004
148,collingwood,44.5003,-80.2171,283.44,61,6,4.83,CA,1684351565
149,hailun,47.4594,126.9656,283.01,27,13,2.69,CN,1684352004
150,puerto real,36.5287,-6.1902,294.22,57,100,6.21,ES,1684352004
151,puerto san carlos,-12.6608,-63.55,303.7,53,46,0.98,BR,1684352005
152,daru,-9.0699,143.21,298.42,90,100,3.48,PG,1684352005
153,georgetown,6.8137,-58.1624,300.64,80,92,3.74,GY,1684352006
154,bethel,60.7922,-161.7558,274.17,86,100,5.14,US,1684352006
155,suva,-18.1416,178.4422,298.46,86,98,4.78,FJ,1684352007
156,dubinino,55.6227,89.0827,276.04,88,99,6.21,RU,1684352007
157,sitka,57.0525,-135.3376,291.73,52,0,1.7,US,1684352008
158,santa marta,11.2321,-74.1951,302.23,72,90,6.11,CO,1684352008
159,hermanus,-34.4175,19.2361,286.39,82,100,2.82,ZA,1684352009
160,murray bridge,-35.1309,139.2652,283.15,77,40,1.45,AU,1684352009
161,cole harbour,45.2594,-61.27,279.98,88,100,4.89,CA,1684352010
162,kani keli,-12.9643,45.1099,299.64,67,6,1.59,YT,1684351573
163,vernon,49.0918,1.4887,287.31,93,90,3.99,FR,1684352011
164,montepuez,-13.1253,39.0017,291.45,74,25,1.66,MZ,1684352011
165,hasaki,35.753,140.8201,290.49,76,0,1.3,JP,1684352012
166,kone,-21.0608,164.8619,296.16,89,88,2.23,NC,1684352012
167,st. john's,47.5615,-52.7126,285.86,87,100,14.4,CA,1684352012
168,smithers,54.7792,-127.1761,301.64,31,78,0.57,CA,1684352013
169,brookings,44.3115,-96.7984,298.96,38,99,0.45,US,1684351824
170,stavern,52.7973,7.4346,282.1,83,4,3.13,DE,1684352013
171,laguna,-28.4825,-48.7808,293.06,68,10,4.2,BR,1684351803
172,sur,33.2721,35.1964,295.44,60,5,2.61,LB,1684352014
173,belmonte,39.5593,-2.7038,289.0,29,95,8.09,ES,1684352014
174,kogalym,62.268,74.4889,274.05,79,19,3.26,RU,1684352015
175,aykhal,65.9516,111.4918,267.76,97,89,2.8,RU,1684352015
176,mahibadhoo,3.7572,72.9689,301.71,77,96,2.8,MV,1684352015
177,goure,13.9862,10.2646,307.06,26,3,3.73,NE,1684352015
178,saint-philippe,45.3584,-73.479,282.64,34,100,6.62,CA,1684352016
179,luderitz,-26.65,15.1573,285.76,87,0,7.16,NA,1684352016
180,prado,41.9204,-5.4204,283.3,47,0,11.01,ES,1684352016
181,police,53.5486,14.5657,284.33,76,90,2.5,PL,1684352016
182,masuda,34.6749,131.8429,290.66,85,100,2.42,JP,1684352017
183,berezovyy,52.8927,50.2243,288.82,65,58,3.38,RU,1684352017
184,kapuskasing,49.4167,-82.4333,282.92,27,82,2.56,CA,1684352017
185,bozoum,6.3147,16.3806,294.54,89,100,1.4,CF,1684352018
186,kete krachi,7.7984,-0.0491,302.19,71,37,3.39,GH,1684352018
187,tadine,-21.5483,167.8823,297.46,85,23,4.39,NC,1684352018
188,castillos,-34.2003,-53.8608,292.2,66,0,4.01,UY,1684352018
189,rome,41.8933,12.4829,289.98,52,98,1.24,IT,1684352019
190,liuhe,31.5165,121.2722,294.27,96,39,3.5,CN,1684352019
191,ancud,-41.8682,-73.8287,284.78,72,36,1.47,CL,1684352019
192,pisco,-13.71,-76.203,295.29,73,3,4.23,PE,1684352020
193,kavaratti,10.5672,72.6395,302.53,72,16,3.16,IN,1684352020
194,rio grande,-53.7857,-67.7016,278.26,72,90,12.07,AR,1684352020
195,ostroleka,53.078,21.5749,279.76,84,100,4.66,PL,1684352020
196,vadso,70.2267,29.7828,274.0,95,100,8.43,NO,1684352021
197,siwa oasis,29.2035,25.5192,298.25,20,0,2.87,EG,1684352021
198,hassi messaoud,31.6957,6.0604,297.47,41,100,8.02,DZ,1684352021
199,punta arenas,-53.1626,-70.9078,278.87,79,34,10.85,CL,1684352021
200,uturoa,-16.7437,-151.4594,298.82,77,13,5.7,PF,1684352022
201,rouissat,31.924,5.3498,295.92,54,100,3.85,DZ,1684352022
202,banska stiavnica,48.4581,18.8988,280.03,88,100,2.9,SK,1684352022
203,lompoc,34.6435,-120.465,300.78,77,11,1.79,US,1684351927
204,sibut,5.7351,19.0851,297.53,79,99,1.97,CF,1684352023
205,quellon,-43.12,-73.6203,284.0,74,89,3.46,CL,1684352023
206,manaure,11.7771,-72.4469,302.24,73,100,6.08,CO,1684352023
207,udayagiri,12.325,76.6751,298.3,75,71,3.61,IN,1684352024
208,deqen,28.4675,98.9171,282.06,87,100,1.74,CN,1684352024
209,tinogasta,-28.0619,-67.5643,301.93,11,0,7.91,AR,1684352024
210,bamboo flat,11.7126,92.7164,300.84,78,57,3.21,IN,1684352025
211,smidovich,48.5957,133.8138,282.02,64,100,2.23,RU,1684352025
212,zakamensk,50.3778,103.2915,276.25,85,59,0.41,RU,1684352025
213,n'zeto,-7.2316,12.8685,298.48,87,100,2.63,AO,1684352025
214,zaidpur,26.8306,81.3296,305.93,16,7,2.97,IN,1684352026
215,lakota,43.3774,-94.0935,295.3,50,43,5.36,US,1684352026
216,todos santos,23.4501,-110.2254,293.54,67,100,4.45,MX,1684352026
217,ahau,-12.501,177.0479,301.3,77,87,3.58,FJ,1684352026
218,jamestown,-15.9277,-5.7161,295.05,69,95,8.08,SH,1684352027
219,vorgashor,67.5812,63.7837,273.93,99,100,3.58,RU,1684352027
220,ji'an,27.0937,114.9614,295.23,92,29,1.28,CN,1684352027
221,pokaran,26.9199,71.9198,306.03,37,0,7.81,IN,1684352028
222,chui,-33.6895,-53.4547,292.45,68,0,3.96,BR,1684352028
223,kananga,-5.8952,22.4086,296.71,72,86,0.8,CD,1684352033
224,saipan,15.191,145.7467,297.35,100,93,1.34,MP,1684352033
225,mana,43.0818,0.9505,287.19,71,93,2.41,FR,1684352034
226,ambovombe,-25.1784,46.0877,292.26,75,2,2.89,MG,1684352039
227,floro,61.6003,5.035,278.13,63,71,2.54,NO,1684352039
228,ma'an,30.2,35.7333,296.99,24,0,4.78,JO,1684352039
229,singaraja,-8.1134,115.0839,297.78,80,86,1.51,ID,1684352040
230,zhangye,38.9365,100.4556,291.34,36,49,3.6,CN,1684352040
231,buta,44.6262,25.1184,290.86,71,100,4.62,RO,1684352040
232,saint john,45.2788,-66.058,280.36,65,100,6.57,CA,1684352041
233,san antonio oeste,-40.7302,-64.939,292.47,33,100,5.41,AR,1684352041
234,chumphon,16.3684,104.0549,300.25,57,98,2.47,TH,1684352041
235,orel,52.9685,36.0692,286.81,77,1,1.94,RU,1684352042
236,cumaribo,4.4471,-69.7976,303.61,64,50,2.06,CO,1684352042
237,cozumel,20.5014,-86.9436,303.11,81,11,3.58,MX,1684352043
238,nampula,-15.1194,39.2616,291.48,95,26,1.05,MZ,1684352043
239,nova vicosa,-17.8908,-39.3725,296.88,68,10,5.24,BR,1684352043
240,nadi,-17.7993,177.4179,298.21,75,100,1.68,FJ,1684352044
241,kapa'a,-33.929,18.4174,287.53,80,87,3.13,ZA,1684352044
242,chimoio,-19.1437,33.478,290.52,76,27,1.51,MZ,1684352045
243,rumonge,-3.9745,29.4393,295.72,83,100,2.05,BI,1684352046
244,sao tome,0.34,6.73,300.28,83,92,2.74,ST,1684351631
245,hami,42.8174,93.5142,294.25,28,97,4.03,CN,1684352046
246,bom jesus,-28.6693,-50.4347,288.97,62,2,1.28,BR,1684352047
247,qamdo,31.145,97.1699,283.45,68,91,0.39,CN,1684352047
248,chissamba,-12.2667,15.3167,289.58,51,83,2.17,AO,1684352047
249,chacabuco,-34.6424,-60.4709,294.73,44,100,3.71,AR,1684352048
250,tchintabaraden,15.8983,5.8036,308.19,8,23,4.25,NE,1684352048
251,auki,-8.7706,160.6993,299.55,85,96,1.05,SB,1684352049
252,licheng,36.6803,117.0591,290.7,80,100,3.46,CN,1684352049
253,manthani,18.8477,78.2553,305.52,24,0,3.13,IN,1684352050
254,tofol,5.326,163.0087,301.0,78,96,5.85,FM,1684352050
255,tura,47.39,0.6889,286.45,66,8,3.62,FR,1684352051
256,siluko,6.5386,5.1609,298.91,89,95,0.81,NG,1684352051
257,naze,5.452,7.0567,298.59,89,100,1.93,NG,1684352052
258,scarborough,54.282,-0.4012,287.02,85,100,6.26,GB,1684352052
259,santa elena de uairen,4.5959,-61.111,298.16,76,100,0.96,VE,1684352052
260,kiffa,16.6162,-11.4002,310.76,19,86,2.06,MR,1684352053
261,marquard,-28.6639,27.4303,282.7,32,0,1.51,ZA,1684352053
262,vila franca do campo,37.7172,-25.4335,292.13,88,100,3.41,PT,1684352054
263,nenjiang,49.1735,125.2312,281.02,55,25,2.95,CN,1684352054
264,missoula,46.8701,-113.9953,294.33,57,88,1.54,US,1684352055
265,bushehr,28.9311,50.8458,300.04,62,77,2.76,IR,1684352055
266,yeniseysk,58.4532,92.1748,273.86,92,16,3.71,RU,1684352055
267,bonthe,7.5273,-12.502,301.0,80,76,2.67,SL,1684352056
268,cudillero,43.5434,-6.1936,285.62,75,3,4.11,ES,1684352057
269,vryburg,-26.9553,24.7301,288.49,43,30,1.54,ZA,1684352057
270,al kharijah,15.3595,44.2167,293.6,47,68,0.68,YE,1684352057
271,viedma,-40.8084,-62.9947,293.7,35,100,4.35,AR,1684352058
272,middelburg,51.4997,3.6137,284.22,77,41,5.75,NL,1684352058
273,sinjar,35.5898,37.004,296.55,27,2,3.61,SY,1684352058
274,san pedro pochutla,15.7444,-96.4653,308.01,47,23,4.76,MX,1684352059
275,kerema,58.896,22.9435,282.61,86,73,7.93,EE,1684352059
276,nadvoitsy,63.8924,34.266,285.5,74,100,4.56,RU,1684352060
277,kirillov,59.8591,38.3759,289.13,53,93,3.51,RU,1684352060
278,monticello,42.6172,8.9546,288.86,93,100,4.11,FR,1684352060
279,boden,65.8333,21.6667,279.99,97,100,1.3,SE,1684352061
280,bardai,21.355,17.0005,301.42,21,97,1.41,TD,1684352061
281,moyale,3.5242,39.0513,292.48,78,5,2.09,KE,1684352062
282,oyama,36.3147,139.8001,290.05,43,0,1.09,JP,1684352062
283,karratha,-20.737,116.8479,294.82,51,0,4.68,AU,1684352063
284,neiafu,-18.6516,-173.9833,298.91,76,100,10.13,TO,1684352063
285,igrim,63.1915,64.4243,281.86,83,14,2.3,RU,1684352063
286,alamosa,37.4699,-105.8696,293.0,29,79,3.61,US,1684352064
287,enewetak,11.3409,162.3245,300.74,74,100,6.42,MH,1684352064
288,kiunga,-6.116,141.2982,296.28,99,100,0.56,PG,1684352065
289,nova sintra,14.8711,-24.6956,293.61,79,0,9.01,CV,1684352065
290,chernyshevsk,52.5141,117.0137,277.86,42,16,1.02,RU,1684352065
291,onega,63.9116,38.0948,287.18,73,100,4.54,RU,1684352066
292,carupano,10.6494,-63.2542,301.54,70,44,4.59,VE,1684352066
293,barranca,-10.7541,-77.7609,296.59,70,17,5.15,PE,1684352067
294,beledweyne,4.7368,45.2039,301.67,63,53,8.49,SO,1684352067
295,makoua,9.9142,21.1261,305.37,36,1,1.55,TD,1684352068
296,pemangkat,1.1561,108.9713,298.36,82,96,1.09,ID,1684352068
297,nagqu,31.4786,92.0498,275.0,73,100,2.19,CN,1684352069
298,manokwari,-0.8614,134.0767,300.21,78,100,1.49,ID,1684352069
299,taulaga,-11.0553,-171.0884,301.33,79,100,5.56,AS,1684352070
300,lagoa,37.1326,-8.4551,291.3,88,100,3.28,PT,1684352070
301,les cayes,18.1944,-73.7512,302.63,62,26,4.5,HT,1684352071
302,egilsstadir,65.262,-14.4035,288.22,50,100,0.65,IS,1684352071
303,nueva rosita,27.9378,-101.2187,303.62,38,1,2.11,MX,1684352072
304,ixtapa,16.8033,-92.9054,305.69,29,16,1.83,MX,1684352072
305,udachny,66.4118,112.2517,272.48,100,100,1.79,RU,1684352072
306,cabedelo,-6.9732,-34.8352,300.07,81,81,4.96,BR,1684352073
307,charters towers,-20.0714,146.271,288.33,51,8,4.3,AU,1684352073
308,kudahuvadhoo,2.6705,72.8906,301.39,79,99,3.2,MV,1684352073
309,buka,-5.2314,154.6315,301.07,75,96,2.85,PG,1684352073
310,kirensk,57.7764,108.1163,274.88,94,100,1.43,RU,1684352074
311,lucea,18.4472,-78.1729,303.15,68,61,2.18,JM,1684352074
312,sirte,31.206,16.5836,293.06,61,3,5.67,LY,1684352074
313,waingapu,-9.6522,120.2637,296.39,88,6,2.98,ID,1684352075
314,pangody,65.8566,74.4948,271.12,82,81,4.69,RU,1684352075
315,korsakov,46.6328,142.781,277.98,86,100,1.69,RU,1684352075
316,culianan,6.972,122.1453,299.77,82,97,1.35,PH,1684352076
317,fallon,47.5076,6.4808,283.1,65,100,4.24,FR,1684352076
318,mount gambier,-37.8247,140.782,280.14,78,19,1.4,AU,1684352076
319,gadzhiyevo,69.2504,33.3153,279.43,97,100,5.25,RU,1684352077
320,kuqa,41.7117,82.9583,295.27,27,2,1.73,CN,1684352077
321,wasagu,11.3735,5.8073,298.63,69,100,6.22,NG,1684352077
322,maxixe,-11.0795,-42.1315,302.53,40,100,2.65,BR,1684352077
323,zaigrayevo,51.8343,108.2706,278.8,56,99,1.35,RU,1684352078
324,fortaleza,-3.7305,-38.5218,301.53,78,42,3.82,BR,1684352078
325,brezina,48.5517,21.5567,285.44,93,100,5.88,HU,1684352078
326,hultsfred,57.4,15.8,279.43,65,7,2.41,SE,1684352079
327,baukau,-8.465,126.4586,294.51,87,12,2.82,TL,1684352079
328,namibe,-15.1951,12.1458,295.15,57,27,4.83,AO,1684352079
329,fisterra,42.9065,-9.2638,289.16,60,68,10.68,ES,1684352079
330,bubaque,11.2997,-15.8335,300.29,74,100,7.48,GW,1684352080
331,barra de santo antonio,-9.4038,-35.5118,299.89,74,49,3.14,BR,1684352080
332,rosemount,44.7392,-93.1261,293.72,56,49,0.89,US,1684352080
333,nacozari de garcia,30.3741,-109.6898,302.47,17,100,3.0,MX,1684352081
334,san rafael del sur,11.8465,-86.4389,306.18,52,93,3.8,NI,1684352081
335,natchez,31.5604,-91.4032,302.18,60,100,2.81,US,1684352081
336,benguela,-12.579,13.4037,296.46,83,50,0.78,AO,1684352081
337,remire-montjoly,4.905,-52.2772,298.15,94,100,2.06,GF,1684352082
338,varberg,57.1057,12.2503,283.74,72,0,7.02,SE,1684352082
339,guerrero negro,27.971,-114.0364,293.74,57,7,7.12,MX,1684352082
340,kultali,22.0864,88.5941,301.91,83,17,6.22,IN,1684352083
341,mbeya,-8.9065,33.4687,288.06,93,88,2.28,TZ,1684352083
342,tolanaro,-25.0297,46.9904,293.65,74,79,1.11,MG,1684352083
343,sai buri,6.7039,101.6214,299.28,86,92,2.09,TH,1684352084
344,saint-pierre,48.3833,7.4719,284.36,77,84,2.05,FR,1684352084
345,alghero,40.56,8.3151,287.03,75,51,1.74,IT,1684352085
346,bayganin,49.2453,56.3274,285.67,86,84,6.3,KZ,1684352085
347,xilin hot,43.9312,116.0789,282.32,46,5,2.05,CN,1684352085
348,waddan,29.1614,16.1413,295.87,32,0,8.56,LY,1684352086
349,liwa,23.1358,53.7881,304.01,20,0,3.61,AE,1684352086
350,grajau,-5.8154,-46.1361,300.41,90,98,0.11,BR,1684352086
351,ciudad lazaro cardenas,20.4622,-97.6991,306.24,42,16,3.07,MX,1684352087
352,shimanovsk,51.9987,127.6719,277.4,77,100,2.73,RU,1684352087
353,amga,60.8942,131.98,277.66,95,100,2.81,RU,1684352087
354,trapani,38.0174,12.516,289.21,81,100,2.21,IT,1684352087
355,belomorsk,64.5217,34.7626,286.89,71,100,4.75,RU,1684352088
356,vila velha,-20.3297,-40.292,297.56,74,0,4.92,BR,1684352088
357,farsan,32.2549,50.5625,286.72,25,100,2.98,IR,1684352088
358,carnarvon,-24.8826,113.6576,294.06,59,5,1.42,AU,1684352089
359,port alfred,-33.5982,26.8915,288.18,92,100,0.89,ZA,1684352089
360,khorugh,37.4904,71.5493,285.69,71,100,2.46,TJ,1684352089
361,mount isa,-20.729,139.4932,288.97,39,2,6.83,AU,1684352089
362,okha,53.5891,142.9498,274.95,98,100,2.52,RU,1684352090
363,springbok,-29.666,17.8825,280.97,81,85,1.96,ZA,1684352090
364,melfort,52.8614,-104.6136,281.74,60,100,6.65,CA,1684352090
365,altay,47.8258,88.1292,281.81,58,31,0.69,CN,1684352090
366,topeka,39.0473,-95.6752,301.04,42,0,0.89,US,1684351640
367,la ronge,55.1005,-105.29,280.04,64,100,5.83,CA,1684352091
368,gornyatskiy,48.2924,40.9599,286.7,76,64,3.99,RU,1684352091
369,dudinka,69.4061,86.1751,270.74,96,100,3.83,RU,1684352092
370,eagle pass,28.7099,-100.4938,305.5,45,2,1.98,US,1684352092
371,shenkursk,62.1059,42.9076,287.29,64,99,2.76,RU,1684352092
372,krasnyy yar,50.6997,44.7256,286.67,78,93,2.95,RU,1684352092
373,uyar,55.81,94.3278,273.56,90,84,6.75,RU,1684352093
374,ust'-kulom,61.6848,53.6899,286.73,68,56,1.7,RU,1684352093
375,linhares,-19.3817,-40.0612,296.09,59,99,3.38,BR,1684352093
376,tarawa,36.4768,44.4778,291.99,25,96,3.56,IQ,1684352094
377,kamyshlov,56.8462,62.7122,280.88,51,11,3.21,RU,1684352094
378,walvis bay,-22.9543,14.5075,287.09,89,0,4.04,NA,1684352094
379,timmins,48.4751,-81.3287,281.33,31,13,2.85,CA,1684351540
380,urengoy,65.9623,78.3719,269.78,85,63,4.22,RU,1684352095
381,mainpuri,27.2271,79.0272,306.21,24,26,2.52,IN,1684352095
382,assab,13.0091,42.7445,303.8,74,7,8.83,ER,1684352095
383,al fuwayliq,26.4394,43.2667,304.18,15,7,3.84,SA,1684352096
384,kyzyl-mazhalyk,51.1455,90.5815,277.17,48,83,2.85,RU,1684352096
385,papao,12.6919,-16.3792,300.47,57,12,5.92,SN,1684352096
386,amherst,42.3732,-72.5199,288.0,31,4,4.02,US,1684351840
387,djambala,-2.5463,14.7558,295.36,88,100,0.88,CG,1684352097
388,ordynskoye,54.3667,81.904,274.59,64,0,2.87,RU,1684352097
389,krasnoufimsk,56.6045,57.7713,283.22,53,65,2.12,RU,1684352097
390,surat,45.9383,3.2553,282.07,71,75,4.15,FR,1684352097
391,jennings,38.7192,-90.2611,302.47,41,1,0.89,US,1684352098
392,tenosique,17.4707,-91.422,312.93,24,0,2.2,MX,1684352098
393,uliastay,47.7416,96.8475,278.42,34,91,1.34,MN,1684352098
394,ploudalmezeau,48.541,-4.6577,286.69,81,67,3.75,FR,1684352099
395,san andres,12.5203,122.0117,300.7,84,100,1.76,PH,1684352099
396,basco,40.3278,-91.2001,297.02,54,0,3.9,US,1684352099
397,okhotsk,59.3644,143.2411,273.91,98,100,8.64,RU,1684352100
398,bayamo,20.3734,-76.6492,304.44,58,93,1.29,CU,1684352100
399,pangoa,-12.3619,-72.8876,302.35,60,80,1.71,PE,1684352100
400,potosi,-19.5891,-65.7538,287.01,14,96,4.8,BO,1684352101
401,maba,32.9739,118.777,291.51,90,94,5.07,CN,1684352101
402,cidreira,-30.1657,-50.2183,292.45,76,2,7.47,BR,1684352101
403,ghanzi,-21.6968,21.6457,288.51,80,94,5.09,BW,1684352102
404,kokpekty,49.9354,73.2847,284.2,35,100,9.13,KZ,1684352102
405,oranjemund,-28.5519,16.4284,284.96,92,79,1.76,NA,1684352102
406,las heras,-46.5897,-68.9278,282.97,30,0,11.34,AR,1684352103
407,ma'rib,15.4579,45.323,304.34,20,100,2.8,YE,1684352103
408,tamanrasset,22.7855,5.5324,300.75,8,59,4.77,DZ,1684352103
409,yabelo,4.8926,38.095,289.65,91,93,3.16,ET,1684352104
410,dryden,42.4909,-76.2972,284.27,47,0,4.92,US,1684352104
411,shali,43.1539,45.9066,285.82,76,2,2.28,RU,1684352104
412,ketchikan,55.3431,-131.6467,293.8,55,32,1.31,US,1684352105
413,coquimbo,-29.9532,-71.338,290.97,64,0,2.34,CL,1684352102
414,fort st. john,56.2461,-120.8471,292.45,38,2,3.14,CA,1684351557
415,enoch,37.7733,-113.0244,298.23,34,96,0.89,US,1684352105
416,argo,33.6882,-86.5014,298.31,95,98,0.45,US,1684352106
417,grand-lahou,5.2443,-5.0035,299.08,88,19,2.89,CI,1684352106
418,ar ruways,16.8609,43.3521,296.81,51,51,2.83,YE,1684352106
419,bockhorn,48.3136,11.9863,284.04,71,100,3.56,DE,1684352107
420,paola,39.3599,16.0396,287.98,83,5,0.81,IT,1684352107
421,aasiaat,68.7096,-52.8513,272.6,79,11,1.43,GL,1684352107
422,urzhum,57.1101,50.0003,287.63,66,69,2.36,RU,1684352107
423,mar del plata,-38.0047,-57.5485,295.29,67,100,1.34,AR,1684352043
424,florence,43.7699,11.2556,290.18,72,39,3.58,IT,1684352108
425,brisas de zicatela,15.8367,-97.0429,305.08,57,3,4.26,MX,1684352108
426,muli,27.9292,101.2787,289.63,65,100,0.28,CN,1684352109
427,karatuzskoye,53.6007,92.869,274.34,90,81,3.63,RU,1684352109
428,kongsvinger,60.1899,12.216,276.5,60,24,1.6,NO,1684352109
429,alice springs,-23.6984,133.8813,282.65,47,0,2.49,AU,1684352109
430,port lincoln,-34.7212,135.8592,286.63,67,100,3.23,AU,1684352110
431,troitskoye,55.2469,37.6271,291.08,80,6,2.49,RU,1684352110
432,ribadesella,43.4617,-5.0587,287.56,74,2,5.05,ES,1684352110
433,indianola,33.451,-90.6551,300.89,70,100,5.53,US,1684352110
434,moree,47.9016,1.2378,285.19,92,11,3.54,FR,1684352111
435,ambodifotatra,-19.1786,48.8769,295.17,91,26,2.03,MG,1684352111
436,broken hill,-31.965,141.4511,278.81,58,0,3.98,AU,1684352111
437,goundi,9.3658,17.3699,300.79,64,96,0.48,TD,1684352112
438,itoman,26.106,127.6861,297.05,93,100,9.61,JP,1684352112
439,serov,59.6051,60.5733,282.49,58,23,1.84,RU,1684352112
440,mazyr,52.0475,29.2667,288.91,75,100,4.52,BY,1684352113
441,queenstown,-45.0322,168.661,278.77,99,100,0.72,NZ,1684352113
442,takestan,36.0726,49.6937,285.11,75,95,3.61,IR,1684352113
443,mendota,44.8872,-93.1644,294.6,53,54,1.34,US,1684352113
444,sisimiut,66.9372,-53.6665,274.37,71,55,2.27,GL,1684352114
445,nema,16.6173,-7.2664,311.01,21,100,3.83,MR,1684352114
446,sao joao da barra,-21.6349,-41.0487,295.44,70,45,9.28,BR,1684352114
447,westport,41.1414,-73.3553,291.8,27,0,4.47,US,1684352011
448,phrai bueng,14.7544,104.361,303.78,56,100,3.14,TH,1684352115
449,testour,36.552,9.4419,290.94,62,100,1.11,TN,1684352115
450,hithadhoo,1.7959,73.3876,301.39,78,100,4.74,MV,1684352116
451,hailar,49.2389,120.0229,280.18,30,9,1.73,CN,1684352116
452,beira,-19.8287,34.8418,296.07,82,2,4.02,MZ,1684352116
453,pul-e 'alam,34.0058,69.0113,289.85,49,7,1.11,AF,1684352117
454,eldoret,0.5198,35.2715,287.43,89,95,1.6,KE,1684352117
455,north bend,47.4958,-121.7849,300.14,61,3,2.24,US,1684352117
456,auckland,-36.8521,174.7632,287.17,72,90,2.68,NZ,1684352117
457,neresheim,48.7539,10.3344,282.05,73,95,2.3,DE,1684352118
458,at taj,24.2173,23.2987,298.46,16,1,5.2,LY,1684352118
459,gun barrel city,32.331,-96.1127,300.94,64,17,3.84,US,1684352118
460,nuku'alofa,-21.1343,-175.2018,297.57,68,62,8.33,TO,1684352119
461,al aaroui,35.0102,-3.0123,290.13,65,100,2.68,MA,1684352119
462,north bay,46.3092,-79.4608,284.31,32,40,3.14,CA,1684352118
463,gambela,-11.6233,27.4751,289.61,69,3,1.28,CD,1684352120
464,howrah,22.5736,88.3251,301.12,78,40,3.6,IN,1684352120
465,kamloops,50.6758,-120.3394,299.98,32,7,2.11,CA,1684352120
466,umluj,25.0303,37.2622,301.74,44,10,2.63,SA,1684352120
467,mandalgovi,45.763,106.2704,283.18,23,0,5.25,MN,1684352121
468,tha bo,17.8475,102.5814,303.1,64,94,1.64,TH,1684352121
469,villa berthet,-27.2922,-60.4103,301.0,34,0,4.43,AR,1684352121
470,reinosa,43.001,-4.1378,278.05,93,38,4.28,ES,1684352122
471,bereznik,62.8555,42.7101,289.21,55,100,3.18,RU,1684352122
472,tame,6.4615,-71.7245,303.74,58,100,0.58,CO,1684352122
473,oruro,-17.9698,-67.1148,289.19,12,25,3.44,BO,1684352122
474,hauterive,48.4774,0.199,282.25,93,58,3.04,FR,1684352123
475,kavieng,-2.5735,150.7952,300.67,77,100,2.12,PG,1684352123
476,dakhla,23.6941,-15.9431,292.07,81,0,11.44,EH,1684352123
477,taroa,12.43,-71.5763,300.79,82,100,7.42,CO,1684352123
478,birnin kudu,11.4378,9.4663,301.51,63,100,10.26,NG,1684352124
479,whakatane,-37.9519,176.9946,281.94,99,100,0.89,NZ,1684352124
480,monte alegre,-1.9989,-54.0728,301.15,77,74,1.25,BR,1684352124
481,bani walid,31.7584,14.0147,295.31,32,15,6.79,LY,1684352125
482,andong,40.1287,124.3863,288.2,97,100,0.57,CN,1684352125
483,quillacollo,-17.3977,-66.2815,298.12,19,3,1.52,BO,1684352125
484,chos malal,-37.3785,-70.2719,288.19,45,37,5.7,AR,1684352126
485,fort bragg,35.1403,-79.1541,301.96,44,99,4.2,US,1684352126
486,necochea,-38.5545,-58.7393,293.56,59,100,5.09,AR,1684352126
487,rawlins,41.7908,-107.2392,293.9,24,35,6.85,US,1684352126
488,new plymouth,-39.058,174.0806,285.46,92,100,3.92,NZ,1684352127
489,tazacorte,28.6429,-17.9326,293.08,84,25,1.34,ES,1684352127
490,idabel,33.8957,-94.8263,297.9,76,76,1.01,US,1684352127
491,kincardine,56.0684,-3.7185,287.03,71,100,3.51,GB,1684352128
492,conception bay south,47.5067,-52.9905,285.97,90,100,9.71,CA,1684352128
493,mlangali,-9.774,34.523,288.53,93,95,1.2,TZ,1684352128
494,karasburg,-28.0132,18.7487,286.27,48,0,4.33,NA,1684352129
495,naraina,28.6221,77.1386,307.27,24,100,2.8,IN,1684352129
496,aydincik,36.1452,33.3224,295.17,56,0,5.08,TR,1684352129
497,ola,35.0323,-93.2232,298.54,68,75,1.72,US,1684352047
498,meridian,32.3643,-88.7037,300.96,69,100,3.03,US,1684351878
499,siliana,36.0847,9.3744,288.79,65,91,2.98,TN,1684352130
500,leava,-14.3006,-178.1562,300.2,82,67,5.82,WF,1684352130
501,pierre,44.3654,-100.3458,301.94,34,98,6.26,US,1684352031
502,labrador city,52.9423,-66.9177,275.91,35,100,4.96,CA,1684352131
503,chiredzi,-21.0453,31.6689,293.68,66,4,1.49,ZW,1684352131
504,guajara mirim,-10.7804,-65.3328,303.14,67,99,0.33,BR,1684352131
505,mcalester,34.9253,-95.7739,295.35,70,16,0.89,US,1684351932
506,meadow lake,54.1303,-108.4351,282.44,57,100,5.05,CA,1684352132
507,santa luzia,-19.7702,-43.8505,294.22,46,0,2.3,BR,1684352132
508,eureka,40.7907,-124.1674,292.03,78,100,3.58,US,1684352133
509,extrema,-22.8549,-46.319,289.25,73,0,2.67,BR,1684352133
510,solnechnyy,50.7238,136.6401,281.56,74,76,0.49,RU,1684352133
511,cold lake,54.4605,-110.1929,281.52,60,100,4.37,CA,1684352134
512,nuuk,64.175,-51.7355,274.8,84,62,2.68,GL,1684352134
513,nieuw amsterdam,40.7128,-74.0059,292.74,23,0,4.02,US,1684351709
514,olyokminsk,60.373,120.4388,274.67,64,16,0.26,RU,1684352134
515,korpilahti,62.0432,25.5801,283.04,75,67,5.8,FI,1684352135
516,bandarbeyla,9.4953,50.8128,300.5,88,98,10.39,SO,1684352135
517,hadibu,12.6512,54.0237,303.22,75,10,3.85,YE,1684352135
518,anloga,5.7936,0.8985,301.92,80,97,6.41,GH,1684352135
519,son la,21.3274,103.9152,294.8,74,90,1.06,VN,1684352136
520,miyanoura,33.6467,130.2286,293.35,83,100,0.44,JP,1684352136
521,baharly,38.426,57.4293,294.35,38,5,3.28,TM,1684352136
522,halden,59.0681,11.5372,283.27,71,4,2.22,NO,1684352137
523,kupang,-10.1632,123.6018,295.97,88,14,3.23,ID,1684352137
524,cuenca,40.0681,-2.1348,283.78,40,72,4.72,ES,1684352137
525,kailua-kona,19.6419,-155.9969,300.65,80,100,1.34,US,1684352137
526,sarupathar,26.1959,93.8636,293.33,98,66,1.62,IN,1684352138
527,trevelin,-43.0791,-71.464,280.51,81,35,3.2,AR,1684352138
528,winnemucca,40.9724,-117.7348,298.85,17,0,3.93,US,1684352138
529,trujillo,39.4606,-5.8817,289.24,19,96,1.92,ES,1684352139
530,cannonvale,-20.2822,148.6895,291.48,67,7,5.19,AU,1684352139
531,bhinmal,25.0071,72.2653,301.84,61,0,6.78,IN,1684352139
532,frolovo,49.7646,43.654,287.7,73,12,5.29,RU,1684352140
533,tsarevo,42.1703,27.8483,286.35,95,100,2.7,BG,1684352140
534,bou arada,36.3511,9.6241,289.93,64,97,2.08,TN,1684352140
535,lukolela,-5.0312,18.8364,298.07,81,100,1.22,CD,1684352141
536,kalyandurg,14.5518,77.112,305.53,23,23,3.14,IN,1684352141
537,nahiyat ash shinafiyah,31.582,44.6489,303.99,12,2,4.12,IQ,1684352141
538,kataragama,6.4136,81.3324,298.73,91,24,3.18,LK,1684352142
539,kalengwa,-13.4669,25.0031,290.34,55,69,1.67,ZM,1684352142
540,glace bay,46.1949,-59.9562,278.16,94,100,4.47,CA,1684352142
541,zabol,31.0278,61.4948,297.07,31,0,6.51,IR,1684352142
542,revda,56.8001,59.9087,280.31,58,85,1.59,RU,1684352143
543,tortoli,39.9266,9.6592,288.74,84,96,1.3,IT,1684352143
544,arauca,7.0852,-70.7578,305.43,54,100,1.54,CO,1684352143
545,rezh,57.3706,61.4043,281.41,52,73,2.22,RU,1684352144
546,isangel,-19.5411,169.2811,298.12,79,23,3.15,VU,1684352144
547,khandyga,62.6478,135.5751,277.4,95,100,2.3,RU,1684352144
548,mogocha,53.7363,119.7625,273.8,68,10,0.62,RU,1684352144
549,xining,36.6173,101.7762,282.56,63,3,1.27,CN,1684352145
550,tromso,69.6516,18.9558,277.75,96,100,3.33,NO,1684352145
551,mili,37.5536,22.7169,289.75,71,0,3.02,GR,1684352145
552,metlili chaamba,32.2605,3.6259,296.27,36,43,8.94,DZ,1684352146
553,strezhevoy,60.7328,77.6008,272.12,82,13,1.88,RU,1684352146
554,suksun,57.1464,57.3951,283.59,53,18,2.78,RU,1684352146
555,baruun-urt,46.6809,113.2835,281.42,21,71,2.94,MN,1684352146
556,balqash,46.8433,74.9773,290.44,44,13,6.2,KZ,1684352147
557,tacna,-18.0139,-70.2512,296.02,50,0,4.41,PE,1684352147
558,sosnogorsk,63.5895,53.9306,287.84,62,40,2.91,RU,1684352147
559,nova olinda do norte,-3.8917,-59.0954,300.62,79,92,1.96,BR,1684352116
560,diego de almagro,-26.3911,-70.0459,296.85,29,0,2.59,CL,1684352148
561,sault ste. marie,46.5239,-84.3201,283.14,37,28,3.37,CA,1684352121
562,maintirano,-18.0609,44.024,296.67,84,1,4.07,MG,1684352148
563,zhaotong,27.3418,103.7147,288.47,92,100,2.23,CN,1684352149
564,pitea,65.3135,21.4899,279.29,91,100,2.35,SE,1684352149
565,byron bay,-28.6483,153.6178,282.43,88,59,5.06,AU,1684352149
566,sompeta,18.9425,84.584,300.55,71,5,4.63,IN,1684352150
567,callao,-12.0523,-77.1391,294.96,76,38,4.58,PE,1684352150
568,mil'kovo,54.6904,158.6099,281.8,75,9,0.49,RU,1684352150
569,marte,12.365,13.8302,306.96,39,99,3.31,NG,1684352150
570,beberibe,-4.181,-38.1298,300.01,82,99,3.5,BR,1684352151
571,arno,7.063,171.5553,301.27,77,14,6.33,MH,1684352151
572,toliara,-23.3542,43.6697,293.42,70,0,2.15,MG,1684352151
573,broome,-17.9567,122.224,296.96,48,31,5.37,AU,1684352152
